City_ID,City,Lat,Lng,Max Temp,Humidity,Cloudiness,Wind Speed,Country,Date
0,huarmey,-10.0681,-78.1522,24.41,84,92,5.05,PE,1707694670
1,minas de marcona,-15.2119,-75.1103,24.21,61,98,2.84,PE,1707694670
2,ushuaia,-54.8,-68.3,6.81,76,75,12.86,AR,1707694670
3,haiku-pauwela,20.9219,-156.3051,25.7,69,20,4.63,US,1707694670
4,nagqu,31.5,92.0,-13.36,63,100,1.58,CN,1707694670
5,port mathurin,-19.6833,63.4167,26.87,85,100,8.21,MU,1707694671
6,klyuchi,52.2667,79.1667,-13.98,87,83,7.42,RU,1707694671
7,kingston,17.997,-76.7936,26.53,65,20,11.32,JM,1707694621
8,port alfred,-33.5906,26.891,20.1,82,6,1.34,ZA,1707694671
9,butterworth,5.3991,100.3638,27.02,77,20,3.6,MY,1707694671
10,adamstown,-25.066,-130.1015,24.94,89,49,8.66,PN,1707694671
11,waitangi,-43.9535,-176.5597,16.01,80,96,2.24,NZ,1707694671
12,guerrero negro,27.9769,-114.0611,17.91,47,0,5.57,MX,1707694671
13,inari,68.906,27.0288,-19.89,100,79,2.52,FI,1707694671
14,utrik,11.2278,169.8474,26.09,79,100,10.71,MH,1707694672
15,west island,-12.1568,96.8225,26.99,83,68,3.09,CC,1707694672
16,tsiombe,-25.3,45.4833,24.1,98,99,1.67,MG,1707694672
17,siwa oasis,29.2041,25.5195,16.69,24,100,3.64,EG,1707694672
18,mount gambier,-37.8333,140.7667,26.45,32,1,0.76,AU,1707694628
19,edinburgh of the seven seas,-37.0676,-12.3116,17.32,73,13,8.05,SH,1707694672
20,kruisfontein,-34.0033,24.7314,18.82,89,50,3.05,ZA,1707694672
21,xichang,27.8964,102.2634,4.88,88,36,1.08,CN,1707694672
22,port-aux-francais,-49.35,70.2167,6.17,76,100,10.58,TF,1707694673
23,blackmans bay,-43.0167,147.3167,23.07,62,83,0.89,AU,1707694673
24,quelimane,-17.8786,36.8883,22.77,97,93,1.91,MZ,1707694673
25,m'sila,35.7058,4.5419,9.02,71,26,2.18,DZ,1707694673
26,selkirk,50.1436,-96.8845,-1.96,83,100,1.4,CA,1707694673
27,atafu village,-8.5421,-172.5159,28.82,75,100,6.5,TK,1707694673
28,bandarbeyla,9.4942,50.8122,25.41,71,41,2.63,SO,1707694673
29,revda,56.801,59.9303,-16.66,94,100,4.54,RU,1707694578
30,ola,59.5833,151.2833,-21.84,83,100,3.02,RU,1707694673
31,shahecheng,36.9383,114.5058,4.08,46,0,0.5,CN,1707694674
32,kodiak,57.79,-152.4072,1.73,93,0,2.06,US,1707694674
33,ribeira grande,38.5167,-28.7,17.1,89,0,8.49,PT,1707694674
34,pendleton,45.6721,-118.7886,13.78,45,100,2.06,US,1707694674
35,padampur,29.6833,73.6167,10.2,26,31,2.28,IN,1707694674
36,puerto ayora,-0.7393,-90.3518,28.08,91,31,1.34,EC,1707694674
37,ilulissat,69.2167,-51.1,-16.99,66,100,5.14,GL,1707694674
38,bethel,41.3712,-73.414,7.17,66,0,2.06,US,1707694674
39,taksimo,56.3444,114.8794,-8.98,72,88,5.55,RU,1707694674
40,jebba,9.1333,4.8333,31.47,16,66,1.55,NG,1707694675
41,hermanus,-34.4187,19.2345,21.0,64,2,3.73,ZA,1707694675
42,zayed city,24.3768,54.589,20.56,86,40,8.23,AE,1707694675
43,grytviken,-54.2811,-36.5092,2.94,92,87,6.66,GS,1707694675
44,badger,64.8,-147.5333,-3.49,89,75,0.0,US,1707694597
45,mulayjah,27.271,48.4242,15.53,74,93,1.27,SA,1707694675
46,port arthur,38.8,121.2667,1.12,80,0,4.56,CN,1707694675
47,selfoss,63.9331,-20.9971,-4.01,77,94,6.37,IS,1707694675
48,road town,18.4167,-64.6167,25.02,65,40,3.6,VG,1707694412
49,salaga,8.5508,-0.5188,31.05,11,0,1.76,GH,1707694676
50,padang,-0.9492,100.3543,25.03,82,21,1.8,ID,1707694676
51,fuji,35.1667,138.6833,8.31,66,25,1.09,JP,1707694676
52,bredasdorp,-34.5322,20.0403,17.83,88,34,1.58,ZA,1707694676
53,afaahiti,-17.75,-149.2833,26.7,94,68,10.69,PF,1707694676
54,iqaluit,63.7506,-68.5145,-25.15,62,40,2.06,CA,1707694676
55,vallenar,-28.5708,-70.7581,19.77,66,0,2.72,CL,1707694676
56,pacific grove,36.6177,-121.9166,16.61,77,0,4.63,US,1707694677
57,mountain home,43.133,-115.6912,6.71,44,0,3.09,US,1707694298
58,hawaiian paradise park,19.5933,-154.9731,25.73,84,75,4.63,US,1707694677
59,el calafate,-50.3408,-72.2768,9.4,52,16,8.79,AR,1707694677
60,machico,32.7,-16.7667,20.4,86,20,1.54,PT,1707694677
61,wynyard,-41.0,145.7167,23.83,38,42,2.07,AU,1707694677
62,uturoa,-16.7333,-151.4333,27.55,88,100,8.69,PF,1707694677
63,talnakh,69.4865,88.3972,-33.49,89,13,1.78,RU,1707694677
64,burang,30.25,81.1667,-20.0,33,3,0.87,CN,1707694678
65,nuuk,64.1835,-51.7216,-13.66,66,45,7.72,GL,1707694678
66,dudinka,69.4058,86.1778,-37.4,99,25,1.79,RU,1707694678
67,kapuskasing,49.4169,-82.4331,-6.95,93,100,1.03,CA,1707694678
68,san antonio de pale,-1.4014,5.6325,28.36,76,89,1.31,GQ,1707694678
69,thunder bay,48.4001,-89.3168,-2.01,63,75,4.12,CA,1707694678
70,carnarvon,-24.8667,113.6333,27.62,59,0,6.68,AU,1707694678
71,neiafu,-18.65,-173.9833,30.38,79,20,3.6,TO,1707694678
72,craig,40.5153,-107.5464,-3.21,58,0,3.09,US,1707694678
73,isangel,-19.55,169.2667,29.06,89,40,3.09,VU,1707694679
74,lebu,-37.6167,-73.65,15.17,87,50,11.13,CL,1707694679
75,nema,57.5067,50.5011,-22.18,99,100,2.26,RU,1707694679
76,berbera,10.4396,45.0143,25.13,83,4,1.7,SO,1707694679
77,papatowai,-46.5619,169.4708,18.24,47,100,3.43,NZ,1707694679
78,saudarkrokur,65.7461,-19.6394,0.08,82,100,8.19,IS,1707694679
79,nar'yan-mar,67.6713,53.087,-30.5,100,57,1.79,RU,1707694679
80,lompoc,34.6391,-120.4579,17.08,56,0,5.14,US,1707694679
81,tiksi,71.6872,128.8694,-34.83,100,100,0.48,RU,1707694680
82,lihue,21.9789,-159.3672,25.77,67,20,5.14,US,1707694680
83,invercargill,-46.4,168.35,15.57,72,90,1.79,NZ,1707694680
84,bilibino,68.0546,166.4372,-31.64,100,73,1.22,RU,1707694680
85,palmer,42.1584,-72.3287,5.42,63,75,4.63,US,1707694411
86,mount pearl,47.5166,-52.7813,1.29,92,100,2.57,CA,1707694680
87,morant bay,17.8815,-76.4093,26.79,97,9,0.9,JM,1707694680
88,raja,8.4596,25.678,25.02,21,16,2.3,SS,1707694680
89,behshahr,36.6923,53.5526,5.97,58,38,1.22,IR,1707694681
90,al majaridah,19.1236,41.9111,22.88,69,21,0.87,SA,1707694681
91,olonkinbyen,70.9221,-8.7187,-2.6,62,100,3.85,SJ,1707694681
92,sinabang,2.4803,96.3801,26.71,79,6,0.54,ID,1707694681
93,fort bragg,35.139,-79.006,18.75,87,0,0.45,US,1707694681
94,sur,22.5667,59.5289,21.98,81,99,2.74,OM,1707694681
95,toliara,-23.35,43.6667,27.59,81,89,8.11,MG,1707694681
96,cidreira,-30.1811,-50.2056,24.32,92,78,1.21,BR,1707694682
97,beaudesert,-27.9833,152.9833,28.48,37,50,5.34,AU,1707694682
98,ulan bator,47.9077,106.8832,-16.93,78,40,1.0,MN,1707694396
99,peterhead,57.5058,-1.7981,4.22,88,100,3.68,GB,1707694393
100,idaho falls,43.4666,-112.0341,1.05,69,75,3.09,US,1707694682
101,yulinshi,38.2906,109.7494,-0.26,36,0,2.81,CN,1707694682
102,thompson,55.7435,-97.8558,-9.91,85,100,1.03,CA,1707694682
103,luderitz,-26.6481,15.1594,17.06,96,1,3.29,NA,1707694682
104,polyarnyy,69.1989,33.4478,-18.09,97,100,2.33,RU,1707694683
105,otacilio costa,-27.4831,-50.1219,20.57,81,75,1.19,BR,1707694683
106,albany,42.6001,-73.9662,3.23,70,83,1.34,US,1707694683
107,longyearbyen,78.2186,15.6401,-7.09,73,75,6.17,SJ,1707694665
108,viedma,-40.8135,-62.9967,30.43,23,34,6.15,AR,1707694683
109,side,36.7667,31.3885,15.13,68,100,2.85,TR,1707694683
110,ak'ordat,15.5486,37.8867,19.64,67,2,1.2,ER,1707694683
111,westport,41.1415,-73.3579,7.87,63,0,2.06,US,1707694633
112,puerto natales,-51.7236,-72.4875,6.58,81,75,6.65,CL,1707694684
113,aasiaat,68.7098,-52.8699,-27.83,99,96,3.71,GL,1707694684
114,arkhara,49.4212,130.0842,-10.13,86,100,5.36,RU,1707694684
115,yellowknife,62.456,-114.3525,-9.71,85,20,1.03,CA,1707694502
116,udachny,66.4167,112.4,-31.31,98,100,2.97,RU,1707694684
117,bardai,11.65,7.2333,23.28,17,5,3.77,NG,1707694684
118,sabana grande de boya,18.945,-69.7933,26.22,77,0,2.37,DO,1707694684
119,coari,-4.085,-63.1414,23.96,99,100,1.08,BR,1707694684
120,lodja,-3.4833,23.4333,21.32,87,98,0.66,CD,1707694684
121,gadzhiyevo,69.2551,33.3362,-14.01,92,100,3.17,RU,1707694685
122,saint-mandrier-sur-mer,43.078,5.929,11.78,67,0,8.23,FR,1707694685
123,pennsville,39.6535,-75.5166,9.62,66,100,1.54,US,1707694685
124,papayal,-4.0761,-80.7361,25.67,83,93,0.91,PE,1707694685
125,punta arenas,-53.15,-70.9167,10.06,50,20,11.83,CL,1707694631
126,mammoth lakes,37.6485,-118.9721,2.4,38,0,0.0,US,1707694685
127,mopti,14.6667,-4.0,26.07,8,0,3.49,ML,1707694686
128,st. john's,47.5649,-52.7093,1.75,92,100,2.57,CA,1707694400
129,colonia,50.9333,6.95,8.87,82,100,2.06,DE,1707694439
130,marquette,46.5333,-87.6335,-1.24,67,100,2.74,US,1707694686
131,stanley,54.868,-1.6985,3.01,94,0,3.6,GB,1707694686
132,tazacorte,28.629,-17.9293,19.54,78,100,3.09,ES,1707694686
133,basoko,1.2391,23.616,25.49,64,91,1.52,CD,1707694686
134,susuman,62.7833,148.1667,-34.99,100,100,0.35,RU,1707694686
135,abu zabad,12.35,29.25,19.87,12,1,4.8,SD,1707694687
136,bredy,52.4153,60.3411,-22.17,100,33,2.77,RU,1707694687
137,fortuna,40.5982,-124.1573,14.43,89,100,4.63,US,1707694687
138,praia da vitoria,38.7333,-27.0667,17.14,82,40,11.79,PT,1707694687
139,iskateley,67.6803,53.1512,-30.55,100,66,1.79,RU,1707694687
140,vrangel',42.7297,133.0839,-3.14,67,1,3.23,RU,1707694687
141,prineville,44.2999,-120.8345,11.94,46,100,4.12,US,1707694399
142,rabaul,-4.1967,152.1721,28.54,74,100,7.19,PG,1707694687
143,shijiazhuang,38.0414,114.4786,-2.08,37,0,1.34,CN,1707694688
144,krasnogvardeyskoye,45.8456,41.5186,11.46,64,100,3.1,RU,1707694688
145,georgetown,5.4112,100.3354,26.96,77,20,3.6,MY,1707694688
146,gizo,-8.103,156.8419,27.99,78,76,4.15,SB,1707694688
147,shizunai-furukawacho,42.3339,142.3669,-2.0,65,29,1.41,JP,1707694688
148,khrystynivka,48.8249,29.9681,7.88,89,78,4.81,UA,1707694688
149,aginskoye,51.1,114.53,-9.87,87,82,2.65,RU,1707694688
150,balykchy,42.4557,76.1861,1.0,80,94,2.75,KG,1707694688
151,weyburn,49.6668,-103.8511,0.12,74,16,5.14,CA,1707694689
152,petropavlovsk-kamchatsky,53.0452,158.6483,-17.53,81,0,5.0,RU,1707694689
153,ust-nera,64.5667,143.2,-35.49,99,96,0.65,RU,1707694689
154,holualoa,19.6228,-155.9522,24.91,76,40,5.14,US,1707694689
155,chibougamau,49.9168,-74.3659,-9.21,79,100,3.6,CA,1707694689
156,margaret river,-33.95,115.0667,19.14,67,0,7.71,AU,1707694689
157,plastun,44.7561,136.2939,-6.47,65,68,2.16,RU,1707694689
158,smidovich,48.6,133.8167,-10.79,94,100,4.27,RU,1707694689
159,alindao,5.0267,21.2088,28.27,29,21,2.24,CF,1707694689
160,shanting,35.0753,117.4578,4.07,73,0,2.35,CN,1707694690
161,port-gentil,-0.7193,8.7815,26.98,94,20,1.54,GA,1707694690
162,port elizabeth,-33.918,25.5701,20.16,81,0,4.63,ZA,1707694690
163,avarua,-21.2078,-159.775,28.03,69,75,6.17,CK,1707694690
164,crane,31.3974,-102.3501,5.91,65,77,8.44,US,1707694690
165,mili,6.0815,171.735,27.17,82,92,10.41,MH,1707694690
166,lock haven,41.137,-77.4469,5.2,85,63,0.96,US,1707694690
167,oodweyne,9.4092,45.064,20.59,50,10,2.79,SO,1707694691
168,zeya,53.75,127.2667,-14.17,96,100,2.98,RU,1707694691
169,anadyr,64.75,177.4833,-23.72,77,89,7.0,RU,1707694691
170,gremda,34.75,10.7833,12.11,54,20,1.54,TN,1707694691
171,tura,25.5198,90.2201,14.21,51,28,1.42,IN,1707694691
172,vila franca do campo,37.7167,-25.4333,18.27,99,58,7.57,PT,1707694691
173,anaconda,46.1285,-112.9423,-1.45,88,100,0.63,US,1707694691
174,pisco,-13.7,-76.2167,26.03,69,0,9.77,PE,1707694454
175,san andres,12.5847,-81.7006,28.01,78,40,4.63,CO,1707694601
176,i-n-salah,27.1935,2.4607,19.85,31,0,4.89,DZ,1707694692
177,hithadhoo,-0.6,73.0833,27.41,76,42,3.79,MV,1707694692
178,codrington,-38.2667,141.9667,21.29,63,9,2.87,AU,1707694692
179,college,64.8569,-147.8028,-3.44,84,75,0.0,US,1707694692
180,keflavik,64.0049,-22.5624,-1.76,74,0,5.14,IS,1707694692
181,la'ie,21.6477,-157.9253,26.68,76,6,0.45,US,1707694692
182,portage la prairie,49.9728,-98.2926,-6.4,90,67,3.94,CA,1707694692
183,sarandi grande,-33.7333,-56.3333,29.63,57,39,3.42,UY,1707694693
184,island harbour,50.724,-1.2758,6.63,90,64,0.45,GB,1707694693
185,rio grande,-32.035,-52.0986,25.06,96,58,3.15,BR,1707694674
186,port lincoln,-34.7333,135.8667,28.18,37,0,1.85,AU,1707694693
187,lubang,13.8584,120.124,25.08,72,14,13.87,PH,1707694693
188,whitehorse,60.7161,-135.0538,1.17,66,100,10.8,CA,1707694646
189,saipan,15.1355,145.701,28.39,65,40,6.69,MP,1707694693
190,whitecourt,54.1502,-115.6855,4.58,38,75,2.57,CA,1707694693
191,saint-philippe,-21.3585,55.7679,24.77,89,34,4.53,RE,1707694694
192,puerto baquerizo moreno,-0.9,-89.6,27.03,80,15,3.59,EC,1707694694
193,new norfolk,-42.7826,147.0587,23.73,41,98,1.52,AU,1707694694
194,weno,7.4515,151.8468,28.97,74,75,5.14,FM,1707694694
195,tazovsky,67.4667,78.7,-32.41,98,100,2.8,RU,1707694694
196,alpine,32.835,-116.7664,16.17,38,0,4.63,US,1707694694
197,enriquillo,17.9,-71.2333,26.82,75,0,4.26,DO,1707694694
198,pasni,25.2631,63.471,19.95,59,100,0.75,PK,1707694695
199,ouadda,8.0777,22.4007,23.44,26,11,2.31,CF,1707694695
200,navashino,55.5292,42.2003,-11.09,93,100,3.43,RU,1707694695
201,abaza,52.655,90.0928,-18.36,96,39,2.41,RU,1707694695
202,isafjordur,66.0755,-23.124,1.88,74,72,14.04,IS,1707694695
203,ca mau,9.1769,105.15,23.68,79,9,3.31,VN,1707694695
204,kerikeri,-35.2268,173.9474,20.75,61,18,3.69,NZ,1707694695
205,hamilton,39.1834,-84.5333,7.83,65,0,3.6,US,1707694493
206,cheney,47.4874,-117.5758,4.18,88,100,3.6,US,1707694696
207,agat village,13.3886,144.6585,29.09,67,20,7.72,GU,1707694696
208,okha,53.5739,142.9478,-19.21,95,99,2.44,RU,1707694696
209,byron bay,-28.65,153.6167,26.51,61,84,3.17,AU,1707694696
210,alice springs,-23.7,133.8833,32.9,38,40,3.09,AU,1707694696
211,aliveri,38.4167,24.0333,16.9,84,100,8.75,GR,1707694696
212,buala,-8.145,159.5921,29.25,72,61,3.59,SB,1707694696
213,'ain el hadjar,34.7585,0.1453,8.63,78,98,8.2,DZ,1707694696
214,madinat ash shamal,26.1293,51.2009,16.01,88,100,3.95,QA,1707694697
215,bonny,4.4522,7.1681,27.92,80,9,2.74,NG,1707694697
216,palikir - national government center,6.9248,158.1611,28.47,65,100,7.72,FM,1707694697
217,roccella ionica,38.322,16.4009,10.71,96,97,7.11,IT,1707694697
218,yanchep,-31.55,115.6833,25.9,65,0,5.52,AU,1707694697
219,turpan,42.9333,89.1667,2.89,56,3,2.49,CN,1707694697
220,fada,9.5667,8.3,23.75,25,1,1.84,NG,1707694697
221,ceeldheer,3.8488,47.1806,24.11,86,78,4.07,SO,1707694697
222,mitterteich,49.9486,12.2383,6.39,92,100,2.24,DE,1707694698
223,bamboo flat,11.7,92.7167,28.05,78,40,2.06,IN,1707694698
224,baruun-urt,46.6806,113.2792,-10.79,87,9,7.38,MN,1707694698
225,santiago de cao,-7.9589,-79.2392,25.07,78,75,5.14,PE,1707694698
226,zambezi,-13.5432,23.1047,20.07,83,99,1.03,ZM,1707694698
227,horodnye,45.8908,28.8483,13.58,67,87,7.31,UA,1707694698
228,aral,40.5156,81.2636,0.31,56,16,1.64,CN,1707694698
229,maun,-19.9833,23.4167,24.54,57,9,4.79,BW,1707694698
230,taoudenni,22.6783,-3.9836,24.02,23,0,4.25,ML,1707694699
231,alaghsas,17.0187,8.0168,22.07,9,0,3.24,NE,1707694699
232,buritis,-15.6178,-46.4233,20.92,95,89,0.76,BR,1707694699
233,buka,40.8108,69.1986,7.84,54,0,1.19,UZ,1707694699
234,labrador city,52.9463,-66.9114,-8.05,87,100,5.66,CA,1707694699
235,enewetak,11.3474,162.3373,26.09,79,100,10.26,MH,1707694699
236,kalmunai,7.4167,81.8167,24.58,85,47,3.6,LK,1707694699
237,kismayo,-0.3582,42.5454,26.22,84,80,5.26,SO,1707694700
238,lautoka,-17.6167,177.4667,30.92,74,75,7.72,FJ,1707694700
239,kununurra,-15.7667,128.7333,25.99,94,75,1.54,AU,1707694700
240,mugia,43.1041,-9.2179,14.95,89,55,11.9,ES,1707694700
241,khovd,48.0056,91.6419,-3.89,62,79,3.89,MN,1707694700
242,gardnerville ranchos,38.8882,-119.7413,9.77,47,0,0.89,US,1707694700
243,ambalangoda,6.2355,80.0538,24.59,87,50,3.3,LK,1707694700
244,ugoofaaru,5.6667,73.0,27.91,72,93,6.13,MV,1707694700
245,port blair,11.6667,92.75,28.02,78,40,2.06,IN,1707694701
246,igarka,67.4667,86.5833,-32.05,90,10,2.7,RU,1707694701
247,boa vista,2.8197,-60.6733,31.99,40,0,5.66,BR,1707694701
248,broken hill,-31.95,141.4333,32.27,30,0,3.15,AU,1707694701
249,yuzhno-kurilsk,44.0306,145.8556,-7.57,81,68,4.17,RU,1707694701
250,montepuez,-13.1256,38.9997,21.24,99,100,1.57,MZ,1707694701
251,bergama,39.1207,27.1805,13.75,70,100,7.1,TR,1707694701
252,bikin,46.8161,134.26,-12.65,93,88,3.39,RU,1707694701
253,east london,-33.0153,27.9116,19.79,77,15,5.09,ZA,1707694702
254,south lake tahoe,38.9332,-119.9844,7.03,51,0,2.57,US,1707694593
255,margate,51.3813,1.3862,6.6,87,23,0.45,GB,1707694559
256,sinop,41.7711,34.8709,9.32,64,100,3.39,TR,1707694702
257,lander,42.833,-108.7307,-1.55,55,0,0.0,US,1707694702
258,fale old settlement,-9.3852,-171.2468,28.1,81,100,6.58,TK,1707694702
259,pemba,-12.974,40.5178,25.39,94,75,2.57,MZ,1707694702
260,dugulubgey,43.6625,43.5369,7.89,66,100,2.0,RU,1707694702
261,ermelo,-26.5333,29.9833,10.81,99,24,1.84,ZA,1707694703
262,priozersk,61.0393,30.1291,-8.92,84,63,3.57,RU,1707694703
263,nyala,12.05,24.8833,21.77,14,0,6.69,SD,1707694703
264,camana,-16.6228,-72.7111,25.14,77,100,2.57,PE,1707694703
265,lembang,-6.8117,107.6175,18.2,94,100,0.45,ID,1707694703
266,kibondo,-3.5864,30.7203,16.23,96,96,1.33,TZ,1707694703
267,tefenni,37.3097,29.7754,4.97,92,100,3.31,TR,1707694703
268,mount isa,-20.7333,139.5,29.87,62,16,0.0,AU,1707694496
269,mahibadhoo,3.7833,72.9667,27.97,73,68,8.75,MV,1707694704
270,koulikoro,14.0,-7.75,23.36,10,0,3.57,ML,1707694704
271,nogliki,51.8333,143.1667,-22.03,100,80,2.24,RU,1707694704
272,cole harbour,44.6724,-63.4751,4.66,92,100,3.02,CA,1707694704
273,alo,7.4178,6.7371,30.64,30,17,1.33,NG,1707694704
274,berezovyy,51.6667,135.7,-13.2,79,100,1.68,RU,1707694704
275,seaside,36.6111,-121.8516,17.32,76,0,4.63,US,1707694620
276,hami,42.8,93.45,-0.23,52,0,3.07,CN,1707694705
277,portland,45.5234,-122.6762,13.02,81,100,3.58,US,1707694132
278,inhambane,-23.865,35.3833,24.46,66,61,5.01,MZ,1707694705
279,bubaque,11.2833,-15.8333,26.31,64,0,6.38,GW,1707694705
280,qaqortoq,60.7167,-46.0333,-15.14,73,86,2.54,GL,1707694705
281,nueva gerona,21.8833,-82.8,24.63,77,83,6.71,CU,1707694705
282,hadibu,12.65,54.0333,25.64,70,12,4.7,YE,1707694705
283,uaua,-9.8414,-39.4817,23.26,87,97,6.93,BR,1707694706
284,jamestown,42.097,-79.2353,0.77,85,100,0.45,US,1707694571
285,ciudad lazaro cardenas,17.9583,-102.2,25.9,64,0,3.69,MX,1707694706
286,vadso,70.0744,29.7487,-7.91,79,75,4.12,NO,1707694706
287,lerwick,60.1545,-1.1494,4.0,98,100,10.56,GB,1707694706
288,kittila,67.6647,24.8936,-25.92,76,100,0.51,FI,1707694706
289,horta,38.5333,-28.6333,16.68,89,0,8.49,PT,1707694706
290,ryotsu-minato,38.0833,138.4333,5.43,53,79,5.08,JP,1707694706
291,katabu,-4.9333,122.5167,27.44,83,87,2.45,ID,1707694706
292,vorgashor,67.5833,63.95,-33.21,100,100,1.84,RU,1707694707
293,villa gesell,-37.2639,-56.973,25.59,84,86,5.69,AR,1707694707
294,albertina,-22.2008,-46.6158,21.05,74,35,2.45,BR,1707694707
295,puerto colombia,10.9878,-74.9547,29.05,77,58,9.85,CO,1707694707
296,namibe,-15.1961,12.1522,27.06,73,100,0.42,AO,1707694707
297,xiaoweizhai,26.1903,107.5125,7.47,74,5,1.91,CN,1707694707
298,aban,56.67,96.06,-14.32,89,100,4.3,RU,1707694707
299,kingscliff,-28.2667,153.5667,27.75,65,100,5.14,AU,1707694707
300,berdigestyakh,62.0989,126.6992,-25.79,98,100,3.4,RU,1707694708
301,pitimbu,-7.4706,-34.8086,26.33,78,72,5.33,BR,1707694708
302,argo,37.6333,22.7333,12.82,92,100,2.61,GR,1707694708
303,mejit,10.2753,170.8646,26.36,77,100,10.55,MH,1707694708
304,vila velha,-20.3297,-40.2925,25.97,91,40,2.06,BR,1707694708
305,ancud,-41.8697,-73.8203,13.11,68,40,2.25,CL,1707694708
306,scarborough,54.2797,-0.4044,5.92,90,21,1.34,GB,1707694654
307,kidal,18.4411,1.4078,23.83,8,0,2.71,ML,1707694708
308,constantia,44.1833,28.65,13.38,63,97,9.69,RO,1707694708
309,labytnangi,66.6572,66.4183,-29.04,87,14,3.65,RU,1707694709
310,poronaysk,49.2167,143.1167,-17.95,93,46,1.39,RU,1707694709
311,perry,37.2506,-83.1999,14.1,89,100,1.94,US,1707694511
312,barabai,-2.5833,115.3833,23.08,99,100,0.8,ID,1707694709
313,mitu,1.1983,-70.1733,23.11,94,97,1.17,CO,1707694709
314,merizo village,13.2658,144.6691,28.88,73,64,8.58,GU,1707694709
315,elkins,38.9259,-79.8467,9.4,94,100,2.06,US,1707694709
316,peace river,56.2501,-117.286,2.17,60,20,3.6,CA,1707694709
317,happy valley-goose bay,53.3168,-60.3315,-0.83,100,75,1.54,CA,1707694710
318,askoy,60.4092,5.226,3.75,100,75,0.51,NO,1707694710
319,lluta,-16.0147,-72.0142,11.44,87,100,0.97,PE,1707694710
320,hafar al-batin,28.4328,45.9708,13.32,100,75,4.12,SA,1707694710
321,tongchuanshi,35.0806,109.0897,5.09,51,0,1.04,CN,1707694710
322,vilyuchinsk,52.9306,158.4028,-16.71,78,7,2.68,RU,1707694710
323,tobruk,32.0836,23.9764,17.84,45,79,9.1,LY,1707694710
324,nova vicosa,-17.8919,-39.3719,25.48,88,14,2.73,BR,1707694711
325,kushiro,42.975,144.3747,-8.47,86,20,2.57,JP,1707694711
326,geraldton,-28.7667,114.6,22.23,88,0,6.17,AU,1707694711
327,duong dong,10.2167,103.9667,25.0,88,0,6.69,VN,1707694711
328,doka,13.5167,35.7667,22.71,31,4,3.56,SD,1707694711
329,warrnambool,-38.3833,142.4833,24.5,47,1,1.53,AU,1707694711
330,neryungri,56.6709,124.6491,-18.06,99,100,1.26,RU,1707694711
331,ar raqqah,35.95,39.0167,13.04,68,75,1.92,SY,1707694711
332,hameenlinna,60.996,24.4643,-11.59,89,59,3.0,FI,1707694712
333,nampula,-15.1165,39.2666,23.97,94,75,3.09,MZ,1707694712
334,sao joao da barra,-21.6403,-41.0511,26.05,89,0,3.45,BR,1707694712
335,santa sylvina,-27.8326,-61.1375,30.59,45,65,3.74,AR,1707694712
336,ghadamis,30.1337,9.5007,14.52,41,6,2.3,LY,1707694712
337,kilindoni,-7.9139,39.6668,28.47,79,98,5.61,TZ,1707694712
338,pacocha,-17.5833,-71.3333,22.15,85,100,1.56,PE,1707694712
339,castillos,-34.1667,-53.8333,23.48,90,0,3.84,UY,1707694712
340,jianguang,28.1938,115.7836,8.59,79,0,1.73,CN,1707694712
341,trairi,-3.2778,-39.2689,25.7,90,95,2.94,BR,1707694606
342,barcelos,41.5388,-8.6151,15.08,98,97,1.41,PT,1707694713
343,broome,42.2506,-75.833,2.54,82,100,1.54,US,1707694713
344,bonthe,7.5264,-12.505,26.59,84,25,3.29,SL,1707694713
345,dryden,49.7833,-92.7503,-6.84,79,100,2.57,CA,1707694713
346,khandyga,62.6667,135.6,-35.78,94,37,1.39,RU,1707694713
347,san patricio,28.017,-97.5169,25.97,50,0,6.25,US,1707694713
348,illizi,26.4833,8.4667,16.89,35,78,1.84,DZ,1707694713
349,lazaro cardenas,17.9583,-102.2,25.9,64,0,3.69,MX,1707694706
350,leninskoye,41.7589,69.3864,5.29,70,49,1.8,KZ,1707694714
351,wailua homesteads,22.0669,-159.378,25.44,68,20,5.14,US,1707694714
352,makakilo city,21.3469,-158.0858,25.88,70,100,6.17,US,1707694714
353,howrah,22.5892,88.3103,18.0,68,40,1.54,IN,1707694714
354,okhotsk,59.3833,143.3,-28.83,89,78,2.31,RU,1707694714
355,cabedelo,-6.9811,-34.8339,26.37,82,29,3.58,BR,1707694714
356,kafanchan,9.5833,8.3,23.84,25,1,1.84,NG,1707694715
357,bei'an,24.5399,109.533,12.03,64,4,0.95,CN,1707694715
358,cobram,-35.9167,145.65,32.23,31,0,5.12,AU,1707694715
359,harper,4.375,-7.7169,27.17,87,85,3.43,LR,1707694715
360,wewak,-3.5534,143.6268,27.79,79,98,2.7,PG,1707694715
361,alta,69.9689,23.2717,-13.41,92,88,1.54,NO,1707694715
362,chegdomyn,51.1167,133.0167,-12.08,95,100,0.07,RU,1707694715
363,itoman,26.1247,127.6694,16.72,51,75,5.66,JP,1707694715
364,kenora,49.8167,-94.4337,-6.46,79,100,3.6,CA,1707694715
365,katoomba,-33.7198,150.3074,20.48,74,1,0.89,AU,1707694716
366,shahba,32.8551,36.629,8.65,57,96,3.81,SY,1707694716
367,bayanhongor,46.7167,100.1167,-20.77,91,20,2.27,MN,1707694716
368,mashhad,36.297,59.6062,6.08,65,0,2.06,IR,1707694716
369,noumea,-22.2763,166.4572,27.99,99,65,7.31,NC,1707694156
370,tralee,52.2704,-9.7026,7.33,62,54,8.6,IE,1707694716
371,sisimiut,66.9395,-53.6735,-21.34,89,66,1.95,GL,1707694716
372,mhango,-3.2833,32.85,17.79,96,60,1.78,TZ,1707694716
373,keelung,25.1283,121.7419,16.16,62,5,6.64,TW,1707694717
374,yinzhu,35.8786,119.9753,3.73,77,0,3.55,CN,1707694717
375,salalah,17.0151,54.0924,24.05,83,40,3.09,OM,1707694717
376,touba,8.2833,-7.6833,26.97,25,56,0.2,CI,1707694717
377,douentza,14.9951,-2.9517,23.19,9,0,1.72,ML,1707694717
378,urucara,-2.5364,-57.76,24.6,93,59,0.87,BR,1707694717
379,kapa'a,22.0752,-159.319,26.18,67,20,5.14,US,1707694717
380,sola,-13.8833,167.55,28.01,73,37,6.85,VU,1707694717
381,fort mcmurray,56.7268,-111.381,3.77,52,0,4.63,CA,1707694718
382,mahriz,31.5917,54.4318,6.28,27,21,3.0,IR,1707694718
383,aktau,43.65,51.2,6.32,67,100,4.67,KZ,1707694718
384,quechultenango,17.4167,-99.2167,25.75,44,0,3.15,MX,1707694718
385,severo-yeniseyskiy,60.3725,93.0408,-18.34,93,100,4.63,RU,1707694718
386,sarikei,2.1167,111.5167,25.05,99,100,0.79,MY,1707694718
387,the pas,53.8251,-101.2541,-5.99,79,100,2.06,CA,1707694718
388,tuba city,36.135,-111.2399,7.43,28,1,2.24,US,1707694718
389,howard springs,-12.497,131.047,24.95,98,100,5.44,AU,1707694719
390,rongelap,11.1635,166.8941,26.18,78,79,9.92,MH,1707694719
391,yinchuan,38.4681,106.2731,0.47,32,5,2.02,CN,1707694719
392,mermoz boabab,14.7065,-17.4758,22.31,94,0,3.09,SN,1707694719
393,fort wellington,6.4,-57.6,26.18,74,25,4.58,GY,1707694719
394,usogorsk,63.4106,48.6872,-22.96,100,99,1.37,RU,1707694719
395,prince albert,53.2001,-105.7677,1.97,55,0,7.2,CA,1707694719
396,antonio enes,-16.2325,39.9086,25.71,91,100,4.09,MZ,1707694720
397,parfino,57.9731,31.6481,-3.29,96,100,1.71,RU,1707694720
398,mahina,-17.5065,-149.489,27.64,94,75,13.38,PF,1707694720
399,taltal,-25.4,-70.4833,19.92,85,98,3.23,CL,1707694720
400,ommen,52.5333,6.5,8.39,15,100,1.79,NL,1707694720
401,turriff,57.5384,-2.4593,4.03,80,100,3.43,GB,1707694720
402,cockburn town,21.4612,-71.1419,23.98,60,40,5.14,TC,1707694720
403,valle aurina - ahrntal,46.9962,11.9799,1.16,98,100,2.81,IT,1707694721
404,olinda,-8.0089,-34.8553,28.85,70,40,6.17,BR,1707694721
405,lata,40.1629,-8.3327,14.49,98,97,2.05,PT,1707694721
406,antsiranana,-12.2787,49.2917,24.73,94,100,4.29,MG,1707694721
407,nelson bay,-32.7167,152.15,28.38,64,0,0.89,AU,1707694721
408,dali,25.7,100.1833,5.46,83,46,1.45,CN,1707694537
409,nadym,65.5333,72.5167,-24.71,95,98,5.97,RU,1707694721
410,tongshan,34.1805,117.1571,5.17,71,0,2.15,CN,1707694721
411,douglas,41.3,-96.167,5.33,62,0,3.6,US,1707694719
412,porto novo,6.4965,2.6036,28.9,87,65,3.47,BJ,1707694722
413,tosontsengel,48.7567,98.2839,-1.3,56,100,10.38,MN,1707694722
414,joroinen,62.1782,27.8317,-17.79,100,84,1.61,FI,1707694722
415,verkhnedneprovskiy,54.9813,33.3457,-1.69,98,100,3.38,RU,1707694722
416,zelenoborskiy,66.845,32.3622,-23.53,99,23,1.23,RU,1707694722
417,morondava,-20.2833,44.2833,26.72,87,100,2.55,MG,1707694722
418,santa elena de uairen,4.6167,-61.1333,23.68,52,73,4.47,VE,1707694722
419,old town,50.087,14.4202,8.34,90,100,6.17,CZ,1707694722
420,nykoping,58.753,17.0079,-3.08,93,100,4.63,SE,1707694723
421,zapala,-38.8992,-70.0544,19.64,25,99,4.92,AR,1707694723
422,poteau,35.0537,-94.6236,7.86,93,100,1.54,US,1707694723
423,armacao de buzios,-22.7469,-41.8817,28.03,88,5,3.51,BR,1707694723
424,dzhalagash,45.0833,64.6667,-4.84,49,100,4.96,KZ,1707694723
425,lorengau,-2.0226,147.2712,29.26,73,92,3.38,PG,1707694723
426,pyapon,16.2833,95.6833,21.07,75,72,2.17,MM,1707694723
427,upington,-28.4478,21.2561,26.21,18,0,2.06,ZA,1707694723
428,aulnoye-aymeries,50.2014,3.8384,7.68,97,62,4.15,FR,1707694723
429,adam,22.3756,57.5233,20.47,83,78,3.46,OM,1707694724
430,griffith,41.5284,-87.4237,3.92,81,0,4.12,US,1707694724
431,amursk,50.2261,136.8994,-16.12,92,100,5.75,RU,1707694724
432,akjoujt,19.6969,-14.4164,25.23,31,0,5.12,MR,1707694724
433,caico,-6.4583,-37.0978,29.16,61,77,2.15,BR,1707694724
434,antofagasta,-23.65,-70.4,22.6,83,96,4.13,CL,1707694572
435,boda,4.3189,17.4695,25.55,25,100,1.27,CF,1707694724
436,"laikit, laikit ii (dimembe)",1.4792,124.9735,24.47,89,75,1.54,ID,1707694724
437,magherafelt,54.7536,-6.6066,2.99,91,21,5.34,GB,1707694725
438,amos,48.5669,-78.1162,-8.69,98,100,0.96,CA,1707694725
439,nova sintra,14.8667,-24.7167,20.37,78,0,7.37,CV,1707694725
440,weatherford,32.7593,-97.7972,6.23,91,100,3.13,US,1707694725
441,coahuayana de hidalgo,18.7,-103.6583,25.3,66,59,1.84,MX,1707694725
442,kollam,8.8833,76.6,24.13,75,8,6.48,IN,1707694725
443,correntina,-13.3433,-44.6367,21.1,85,100,0.94,BR,1707694725
444,safi,32.1667,-8.8333,13.73,84,0,2.23,MA,1707694673
445,manokwari,-0.8667,134.0833,27.08,76,62,1.34,ID,1707694628
446,quatre cocos,-20.2078,57.7625,27.06,86,3,8.37,MU,1707694726
447,laguna,38.421,-121.4238,16.16,55,0,3.09,US,1707694726
448,drouin,-38.1333,145.85,31.06,29,0,3.53,AU,1707694726
449,aleksandrov gay,50.147,48.5704,-8.71,87,100,5.3,RU,1707694726
450,kavieng,-2.5744,150.7967,28.94,72,73,3.03,PG,1707694726
451,la villa del rosario,10.3258,-72.3134,27.63,66,59,3.56,VE,1707694726
452,la mira,18.035,-102.3266,25.81,63,0,3.45,MX,1707694726
453,yeraliyev,43.2,51.65,9.4,67,100,4.4,KZ,1707694727
454,udaipur,24.5712,73.6918,12.83,32,100,2.46,IN,1707694727
455,wakkanai,45.4094,141.6739,-2.73,63,92,1.79,JP,1707694727
456,belmonte,-15.8631,-38.8828,25.36,87,59,3.03,BR,1707694727
457,yuzhno-sakhalinsk,46.9581,142.7337,-19.21,78,27,0.0,RU,1707694727
458,kristiansund,63.1115,7.732,1.36,60,100,4.12,NO,1707694727
459,touros,-5.1989,-35.4608,27.34,80,19,5.65,BR,1707694727
460,chonchi,-42.6128,-73.8092,14.56,74,41,2.52,CL,1707694727
461,jinka,5.65,36.65,20.93,65,91,1.03,ET,1707694728
462,la cruz,23.9167,-106.9,20.97,48,0,7.89,MX,1707694728
463,robertsport,6.7533,-11.3686,26.82,88,46,3.3,LR,1707694728
464,yanacancha,-10.2411,-76.6456,7.75,85,99,1.88,PE,1707694728
465,ma'rib,15.4591,45.3253,21.03,53,36,3.21,YE,1707694728
466,northam,51.0333,-4.2167,7.03,90,54,7.8,GB,1707694728
467,marsh harbour,26.5412,-77.0636,23.55,68,82,4.65,BS,1707694519
468,fallsburg,41.732,-74.6013,4.46,79,89,1.92,US,1707694728
469,qaisumah,28.3112,46.1273,12.98,100,75,4.12,SA,1707694728
470,tucuma,-0.1833,-50.05,25.11,90,97,3.41,BR,1707694729
471,hammerfest,70.6634,23.6821,-0.75,69,75,4.63,NO,1707694729
472,hong kong,22.2855,114.1577,16.81,56,9,4.02,HK,1707694493
473,miranda do douro,41.4969,-6.2731,7.26,98,100,6.02,PT,1707694729
474,gamba,-2.65,10.0,26.23,88,100,1.49,GA,1707694729
475,eirunepe,-6.6603,-69.8736,23.88,98,100,0.84,BR,1707694729
476,sao paulo de olivenca,-3.3783,-68.8725,24.12,98,100,0.75,BR,1707694729
477,kanggye,40.9695,126.5852,-6.83,76,5,0.84,KP,1707694730
478,kremenets,50.0969,25.7246,7.54,77,91,3.05,UA,1707694730
479,ouargla,31.9493,5.325,16.04,36,22,1.03,DZ,1707694730
480,pascagoula,30.3658,-88.5561,23.4,93,100,2.06,US,1707694730
481,callao,-12.0667,-77.15,27.16,65,0,7.2,PE,1707694730
482,fuerte olimpo,-21.0415,-57.8738,24.4,96,100,0.9,PY,1707694730
483,ma'an,26.9775,110.7211,9.44,83,77,0.28,CN,1707694731
484,galliano,29.4422,-90.2992,23.0,88,40,5.66,US,1707694731
485,san fernando de apure,7.8878,-67.4724,29.43,46,11,1.92,VE,1707694731
486,anzio,41.4853,12.6179,10.25,75,66,1.76,IT,1707694731
487,cuyo,10.8525,121.0086,25.48,82,23,13.04,PH,1707694731
488,balabac,7.9868,117.0645,26.74,80,74,9.44,PH,1707694731
489,sitka,57.0531,-135.33,5.94,61,100,6.17,US,1707694731
490,bethlehem,-1.4558,-48.5044,28.02,83,75,7.2,BR,1707694731
491,xining,36.6167,101.7667,-8.26,66,0,2.2,CN,1707694732
492,acarau,-2.8856,-40.12,28.1,83,99,8.74,BR,1707694721
493,gaalkacyo,6.7697,47.4308,22.06,79,66,3.93,SO,1707694732
494,ammon,43.4696,-111.9666,1.03,69,75,3.09,US,1707694732
495,colby,39.3958,-101.0524,5.18,51,0,6.69,US,1707694732
496,soria,41.6667,-2.6667,4.98,100,99,2.91,ES,1707694732
497,naze,28.3667,129.4833,13.51,58,5,4.29,JP,1707694732
498,romblon,12.5751,122.2708,25.01,72,36,12.0,PH,1707694732
499,la libertad,-2.2333,-80.9,26.81,83,40,5.14,EC,1707694732
500,kedrovyy,56.1667,91.8167,-13.77,92,100,4.94,RU,1707694733
501,manggar,-2.8833,108.2667,26.89,84,58,5.11,ID,1707694733
502,wau,7.7029,27.9953,29.56,18,54,4.19,SS,1707694733
503,san pablo,14.0669,121.3258,24.89,68,28,7.76,PH,1707694733
504,belomorsk,64.5232,34.7668,-19.86,91,7,2.86,RU,1707694733
505,boyolangu,-8.1181,111.8935,25.33,88,49,0.25,ID,1707694733
506,tangalle,6.024,80.7911,23.04,81,35,4.24,LK,1707694733
507,nantucket,41.2835,-70.0995,5.57,81,0,3.09,US,1707694673
508,sao gabriel da cachoeira,-0.1303,-67.0892,23.87,97,99,1.3,BR,1707694733
509,mercier,45.3168,-73.7492,2.63,76,100,6.17,CA,1707694734
510,banda aceh,5.5577,95.3222,28.18,75,12,12.3,ID,1707694734
511,chui,-33.6971,-53.4616,24.71,92,37,4.57,UY,1707694734
512,gwaram,11.2764,9.8858,22.13,15,62,3.36,NG,1707694734
513,hilo,19.7297,-155.09,25.85,77,75,4.63,US,1707694456
514,boalo,40.716,-3.9166,4.07,81,99,2.13,ES,1707694734
515,urengoy,65.9667,78.3667,-31.43,99,89,3.13,RU,1707694734
516,la roche-sur-yon,46.6667,-1.4333,7.15,93,0,2.57,FR,1707694734
517,katsuura,35.1333,140.3,3.14,91,100,4.68,JP,1707694734
518,port augusta,-32.5,137.7667,35.43,17,0,3.24,AU,1707694735
519,axim,4.8699,-2.2405,27.48,87,97,2.29,GH,1707694735
520,ha'il,27.5219,41.6907,9.01,87,75,4.12,SA,1707694735
521,bongao,5.0833,119.7833,27.48,73,82,8.52,PH,1707694735
522,kavaratti,10.5669,72.642,27.62,71,5,4.75,IN,1707694735
523,tidaholm,58.1804,13.9582,-1.49,95,100,6.39,SE,1707694735
524,prince rupert,54.3161,-130.3201,5.05,75,0,5.66,CA,1707694732
525,walvis bay,-22.9575,14.5053,19.53,77,99,0.0,NA,1707694736
526,las terrenas,19.311,-69.5428,24.79,71,0,5.7,DO,1707694736
527,geneseo,42.7959,-77.8169,2.52,76,100,1.7,US,1707694447
528,la ronge,55.1001,-105.2842,1.14,60,75,5.66,CA,1707694736
529,tadine,-21.55,167.8833,27.93,75,12,9.16,NC,1707694736
530,'alaqahdari dishu,30.4374,63.313,16.31,25,100,1.89,AF,1707694736
531,marsa alam,25.0757,34.8918,18.56,57,0,2.47,EG,1707694736
532,kayangel,8.0823,134.7173,27.19,80,100,9.03,PW,1707694737
533,arawa,-6.2132,155.5367,28.32,74,90,2.08,PG,1707694737
534,krasnyy chikoy,50.3643,108.7512,-8.01,89,100,0.73,RU,1707694737
535,mil'kovo,55.6078,37.7956,-4.77,96,100,3.49,RU,1707694737
536,tianshui,34.5439,105.6897,-0.64,90,0,0.9,CN,1707694737
537,kiunga,-6.1219,141.2906,27.82,76,99,1.03,PG,1707694737
538,mina clavero,-31.721,-65.0062,27.21,68,45,4.6,AR,1707694737
539,hays,30.0502,-98.0336,14.93,79,12,3.13,US,1707694737
